ID,City,Country,Date,Lat,Lng,Max Temp,Humidity,Cloudiness,Wind Speed,Description
0,Busselton,AU,2022-04-07 17:25:11,-33.65,115.3333,67.14,54,79,4.97,broken clouds
1,Kruisfontein,ZA,2022-04-07 17:26:49,-34.0033,24.7314,56.88,67,30,10.74,scattered clouds
2,Namibe,AO,2022-04-07 17:26:49,-15.1961,12.1522,72.32,75,5,12.91,clear sky
3,Avallon,FR,2022-04-07 17:26:49,47.4833,3.9,53.24,92,100,23.02,light rain
4,Bima,ID,2022-04-07 17:26:50,-8.4667,118.7167,76.21,94,98,4.14,overcast clouds
5,Bara,NG,2022-04-07 17:22:12,10.3744,10.7288,102.0,13,2,7.36,clear sky
6,Atuona,PF,2022-04-07 17:26:50,-9.8,-139.0333,79.12,72,17,15.95,few clouds
7,Palmer,US,2022-04-07 17:26:51,42.1584,-72.3287,53.65,59,100,5.01,overcast clouds
8,Hermanus,ZA,2022-04-07 17:26:51,-34.4187,19.2345,55.8,69,22,10.94,few clouds
9,Saint George,US,2022-04-07 17:26:31,37.1041,-113.5841,63.79,13,0,5.75,clear sky
10,Faanui,PF,2022-04-07 17:26:52,-16.4833,-151.75,82.78,70,30,19.69,scattered clouds
11,Ushuaia,AR,2022-04-07 17:21:03,-54.8,-68.3,44.22,61,20,10.36,few clouds
12,Moron,AR,2022-04-07 17:26:52,-34.6534,-58.6198,82.96,60,0,7.07,light rain
13,Sao Bras De Alportel,PT,2022-04-07 17:26:53,37.1531,-7.8875,65.28,72,20,10.36,few clouds
14,Salta,AR,2022-04-07 17:23:58,-24.7859,-65.4117,82.58,41,20,4.61,few clouds
15,Port Blair,IN,2022-04-07 17:26:53,11.6667,92.75,80.64,89,40,0.0,mist
16,Cape Town,ZA,2022-04-07 17:23:15,-33.9258,18.4232,62.28,69,0,18.41,clear sky
17,Lebu,CL,2022-04-07 17:26:54,-37.6167,-73.65,61.56,84,46,5.61,scattered clouds
18,Cabo San Lucas,MX,2022-04-07 17:23:46,22.8909,-109.9124,85.3,58,0,11.5,clear sky
19,Carnarvon,AU,2022-04-07 17:25:21,-24.8667,113.6333,77.07,78,40,12.66,scattered clouds
20,Rikitea,PF,2022-04-07 17:25:18,-23.1203,-134.9692,79.68,63,7,14.14,clear sky
21,Altay,CN,2022-04-07 17:18:24,47.8667,88.1167,48.09,48,44,9.08,scattered clouds
22,Skibbereen,IE,2022-04-07 17:26:55,51.55,-9.2667,48.11,66,85,8.99,overcast clouds
23,Puerto Ayora,EC,2022-04-07 17:25:13,-0.7393,-90.3518,84.16,71,50,10.69,scattered clouds
24,Albany,US,2022-04-07 17:24:56,42.6001,-73.9662,47.95,91,100,5.01,moderate rain
25,Zyryanka,RU,2022-04-07 17:26:56,65.75,150.85,-11.88,100,100,1.25,overcast clouds
26,Luanda,AO,2022-04-07 17:26:03,-8.8368,13.2343,78.73,82,20,13.22,few clouds
27,Golspie,GB,2022-04-07 17:26:57,57.9727,-3.978,42.94,83,100,19.35,overcast clouds
28,La Ronge,CA,2022-04-07 17:24:53,55.1001,-105.2842,37.65,56,0,3.44,clear sky
29,Butaritari,KI,2022-04-07 17:20:45,3.0707,172.7902,80.69,81,100,16.84,light rain
30,Yellowknife,CA,2022-04-07 17:26:58,62.456,-114.3525,32.41,70,40,5.75,scattered clouds
31,Qaanaaq,GL,2022-04-07 17:26:58,77.484,-69.3632,-0.08,80,32,5.86,scattered clouds
32,High Level,CA,2022-04-07 17:26:20,58.5169,-117.136,37.51,60,20,2.3,few clouds
33,Constitucion,CL,2022-04-07 17:26:58,-35.3333,-72.4167,67.78,59,14,14.63,few clouds
34,Knysna,ZA,2022-04-07 17:26:59,-34.0363,23.0471,56.86,79,13,4.5,few clouds
35,Kapaa,US,2022-04-07 17:20:59,22.0752,-159.319,73.47,81,75,13.8,broken clouds
36,Port Alfred,ZA,2022-04-07 17:27:00,-33.5906,26.891,59.18,76,33,5.99,scattered clouds
37,Casa Nova,BR,2022-04-07 17:27:00,-9.4167,-41.1333,92.05,25,47,4.7,scattered clouds
38,Nikolskoye,RU,2022-04-07 17:26:10,59.7035,30.7861,42.87,99,100,8.14,light rain
39,Krasnoselkup,RU,2022-04-07 17:20:58,65.7,82.4667,9.73,97,74,7.87,broken clouds
40,Longyearbyen,SJ,2022-04-07 17:27:01,78.2186,15.6401,12.04,62,20,13.8,few clouds
41,Cody,US,2022-04-07 17:19:52,44.5263,-109.0565,46.65,29,0,13.8,clear sky
42,Tura,IN,2022-04-07 17:17:14,25.5198,90.2201,73.89,68,1,4.45,clear sky
43,Dikson,RU,2022-04-07 17:27:02,73.5069,80.5464,2.17,98,100,9.82,overcast clouds
44,Espanola,US,2022-04-07 17:27:02,35.9911,-106.0806,55.0,16,2,2.28,clear sky
45,Sujangarh,IN,2022-04-07 17:27:02,27.7011,74.4649,87.6,7,3,6.64,clear sky
46,Chambersburg,US,2022-04-07 17:26:20,39.9376,-77.6611,51.76,83,100,5.99,light rain
47,Tiksi,RU,2022-04-07 17:26:29,71.6872,128.8694,-11.67,100,91,1.57,overcast clouds
48,Barrow,US,2022-04-07 17:28:03,71.2906,-156.7887,-2.18,71,0,9.22,clear sky
49,Tasiilaq,GL,2022-04-07 17:28:04,65.6145,-37.6368,23.16,90,100,9.46,light snow
50,Geraldton,AU,2022-04-07 17:26:30,-28.7667,114.6,73.81,88,100,8.05,overcast clouds
51,Berbera,SO,2022-04-07 17:28:04,10.4396,45.0143,81.81,73,51,8.05,broken clouds
52,Jamestown,US,2022-04-07 17:25:15,42.097,-79.2353,51.39,73,100,8.05,overcast clouds
53,Hofn,IS,2022-04-07 17:18:21,64.2539,-15.2082,35.62,38,20,17.27,few clouds
54,San Patricio,US,2022-04-07 17:28:05,28.017,-97.5169,78.17,16,0,16.84,clear sky
55,Vestmanna,FO,2022-04-07 17:28:05,62.1564,-7.1664,34.72,69,75,31.07,light snow
56,Bambous Virieux,MU,2022-04-07 17:28:06,-20.3428,57.7575,79.05,83,40,10.36,light rain
57,Havoysund,NO,2022-04-07 17:28:06,70.9963,24.6622,35.83,86,100,21.36,overcast clouds
58,Homer,US,2022-04-07 17:28:07,59.6425,-151.5483,36.03,83,20,3.44,few clouds
59,Khatanga,RU,2022-04-07 17:28:07,71.9667,102.5,5.47,91,100,13.4,overcast clouds
60,Tambopata,PE,2022-04-07 17:28:08,-12.7333,-69.1833,91.29,58,40,3.44,scattered clouds
61,Araouane,ML,2022-04-07 17:28:08,18.9048,-3.5265,102.76,7,7,14.92,clear sky
62,Bainbridge,US,2022-04-07 17:25:23,47.6262,-122.5212,60.28,68,0,1.99,clear sky
63,Calbuco,CL,2022-04-07 17:28:08,-41.768,-73.1273,61.81,92,98,2.04,overcast clouds
64,Lufilufi,WS,2022-04-07 17:28:09,-13.8745,-171.5986,76.78,80,76,18.57,light rain
65,Burnie,AU,2022-04-07 17:28:09,-41.0667,145.9167,56.91,86,74,10.0,broken clouds
66,Taree,AU,2022-04-07 17:28:10,-31.9,152.4667,68.11,88,100,3.44,overcast clouds
67,Mar Del Plata,AR,2022-04-07 17:27:49,-38.0023,-57.5575,62.62,86,75,11.5,broken clouds
68,Road Town,VG,2022-04-07 17:28:11,18.4167,-64.6167,82.49,69,20,12.66,few clouds
69,Arraial Do Cabo,BR,2022-04-07 17:25:10,-22.9661,-42.0278,80.56,69,20,11.5,few clouds
70,Sangar,RU,2022-04-07 17:28:11,63.9242,127.4739,3.09,98,99,2.35,overcast clouds
71,Atambua,ID,2022-04-07 17:28:12,-9.1061,124.8925,73.02,88,85,4.16,overcast clouds
72,Hobart,AU,2022-04-07 17:28:12,-42.8794,147.3294,50.05,88,18,8.05,few clouds
73,New Norfolk,AU,2022-04-07 17:25:22,-42.7826,147.0587,49.71,75,14,2.77,few clouds
74,Saint-Philippe,RE,2022-04-07 17:23:25,-21.3585,55.7679,76.59,84,39,10.83,scattered clouds
75,Medea,DZ,2022-04-07 17:28:13,36.2642,2.7539,57.24,55,0,5.77,clear sky
76,Severo-Kurilsk,RU,2022-04-07 17:25:14,50.6789,156.125,28.42,84,100,7.7,overcast clouds
77,Yulara,AU,2022-04-07 17:28:14,-25.2406,130.9889,62.44,45,0,5.75,clear sky
78,Voh,NC,2022-04-07 17:28:14,-20.9667,164.7,75.04,93,100,7.76,overcast clouds
79,Port Elizabeth,ZA,2022-04-07 17:25:11,-33.918,25.5701,59.31,75,0,24.0,clear sky
80,Mataura,NZ,2022-04-07 17:25:12,-46.1927,168.8643,48.85,66,91,7.7,overcast clouds
81,Vardo,NO,2022-04-07 17:27:26,70.3705,31.1107,35.58,87,75,24.16,broken clouds
82,College,US,2022-04-07 17:19:35,64.8569,-147.8028,24.58,76,75,4.61,broken clouds
83,Akyab,MM,2022-04-07 17:28:15,20.15,92.9,80.02,79,75,6.29,broken clouds
84,Wad Madani,SD,2022-04-07 17:28:16,14.4012,33.5199,101.71,12,3,9.04,clear sky
85,Bredasdorp,ZA,2022-04-07 17:24:55,-34.5322,20.0403,58.71,67,52,6.46,broken clouds
86,Souillac,MU,2022-04-07 17:24:48,-20.5167,57.5167,79.18,83,40,10.36,light rain
87,Bandarban,BD,2022-04-07 17:28:17,22.1965,92.2262,80.31,73,45,1.1,scattered clouds
88,Mandal,IN,2022-04-07 17:28:17,25.45,74.5667,86.86,9,2,8.25,clear sky
89,Ostrovnoy,RU,2022-04-07 17:19:49,68.0531,39.5131,20.59,86,51,10.38,broken clouds
90,Klaksvik,FO,2022-04-07 17:29:18,62.2266,-6.589,36.52,76,100,34.29,overcast clouds
91,Pisco,PE,2022-04-07 17:25:23,-13.7,-76.2167,71.02,78,0,8.05,clear sky
92,East London,ZA,2022-04-07 17:29:06,-33.0153,27.9116,58.14,82,0,10.36,clear sky
93,Bouca,CF,2022-04-07 17:29:18,6.5105,18.2733,85.77,46,46,14.14,scattered clouds
94,Mount Gambier,AU,2022-04-07 17:29:19,-37.8333,140.7667,55.31,94,0,9.22,clear sky
95,Barabai,ID,2022-04-07 17:29:19,-2.5833,115.3833,73.65,97,66,2.15,broken clouds
96,Abadan,IR,2022-04-07 17:29:20,30.3392,48.3043,85.95,19,2,4.61,dust
97,Bayir,TR,2022-04-07 17:29:20,37.2687,28.2167,63.12,68,79,8.16,broken clouds
98,Maniwaki,CA,2022-04-07 17:25:42,46.3834,-75.966,43.18,93,100,10.36,overcast clouds
99,Bani,DO,2022-04-07 17:29:21,18.2833,-70.3333,85.44,53,14,15.77,few clouds
100,Skjervoy,NO,2022-04-07 17:29:21,70.0311,20.9714,33.8,70,99,14.18,overcast clouds
101,Sandwick,GB,2022-04-07 17:29:22,60.0,-1.25,42.62,52,20,16.11,few clouds
102,Provideniya,RU,2022-04-07 17:29:22,64.3833,-173.3,-7.47,93,91,2.3,overcast clouds
103,Baneh,IR,2022-04-07 17:29:23,35.9975,45.8853,55.44,51,44,14.83,scattered clouds
104,Gillette,US,2022-04-07 17:24:59,44.2911,-105.5022,42.12,38,20,29.93,few clouds
105,Lovozero,RU,2022-04-07 17:29:23,68.005,35.0117,23.14,89,27,14.16,scattered clouds
106,Chokurdakh,RU,2022-04-07 17:29:23,70.6333,147.9167,-21.62,91,60,4.88,broken clouds
107,Rawson,AR,2022-04-07 17:29:24,-43.3002,-65.1023,57.2,77,100,17.74,overcast clouds
108,Norman Wells,CA,2022-04-07 17:29:21,65.282,-126.8329,21.24,58,0,10.36,clear sky
109,Nacogdoches,US,2022-04-07 17:29:25,31.6002,-94.6335,66.06,32,0,18.41,clear sky
110,Avarua,CK,2022-04-07 17:29:13,-21.2078,-159.775,78.85,89,40,4.61,scattered clouds
111,Tomatlan,MX,2022-04-07 17:29:25,19.9333,-105.25,85.35,47,100,5.88,overcast clouds
112,Katangli,RU,2022-04-07 17:29:26,51.7102,143.2326,24.13,93,94,10.65,overcast clouds
113,Bluff,NZ,2022-04-07 17:24:45,-46.6,168.3333,55.47,79,81,27.22,broken clouds
114,Pevek,RU,2022-04-07 17:29:26,69.7008,170.3133,-3.37,98,100,7.18,overcast clouds
115,Paamiut,GL,2022-04-07 17:29:27,61.994,-49.6678,27.0,78,89,22.1,overcast clouds
116,Cam Ranh,VN,2022-04-07 17:29:27,11.9214,109.1591,75.16,57,20,8.05,few clouds
117,Cooma,AU,2022-04-07 17:29:28,-36.2333,149.1333,51.57,100,100,6.91,moderate rain
118,Qaqortoq,GL,2022-04-07 17:29:28,60.7167,-46.0333,31.55,83,100,5.5,overcast clouds
119,Passos,BR,2022-04-07 17:29:28,-20.7189,-46.6097,83.66,59,12,0.13,few clouds
120,Castro,BR,2022-04-07 17:29:29,-24.7911,-50.0119,73.24,72,99,2.86,overcast clouds
121,Nishihara,JP,2022-04-07 17:29:29,26.1842,127.7558,65.48,70,0,9.22,clear sky
122,Cabedelo,BR,2022-04-07 17:29:29,-6.9811,-34.8339,86.67,70,99,11.21,overcast clouds
123,Hay River,CA,2022-04-07 17:25:19,60.8156,-115.7999,42.78,39,40,9.22,scattered clouds
124,Kodiak,US,2022-04-07 17:23:22,57.79,-152.4072,29.71,100,100,3.44,light snow
125,Belmonte,BR,2022-04-07 17:29:30,-15.8631,-38.8828,84.42,53,0,7.65,clear sky
126,La Asuncion,VE,2022-04-07 17:25:19,11.0333,-63.8628,85.73,66,99,18.41,overcast clouds
127,Krasnokamensk,RU,2022-04-07 17:29:31,50.0979,118.0369,50.32,50,100,23.98,overcast clouds
128,Vao,NC,2022-04-07 17:29:31,-22.6667,167.4833,79.41,84,99,37.13,heavy intensity rain
129,Hithadhoo,MV,2022-04-07 17:25:15,-0.6,73.0833,82.85,63,11,2.68,few clouds
130,Merauke,ID,2022-04-07 17:25:05,-8.4667,140.3333,78.15,88,72,9.93,broken clouds
131,Georgetown,MY,2022-04-07 17:27:08,5.4112,100.3354,78.73,93,40,3.44,scattered clouds
132,Ponta Do Sol,PT,2022-04-07 17:29:32,32.6667,-17.1,66.0,72,59,1.95,broken clouds
133,Punta Arenas,CL,2022-04-07 17:25:19,-53.15,-70.9167,46.51,61,0,10.36,clear sky
134,Ilula,TZ,2022-04-07 17:29:33,-7.6766,36.0366,64.18,96,10,4.0,clear sky
135,Tulle,FR,2022-04-07 17:30:33,45.3333,1.8333,49.55,99,100,8.55,light rain
136,Chumikan,RU,2022-04-07 17:30:34,54.7183,135.315,18.75,97,100,3.83,light snow
137,Victoria,HK,2022-04-07 17:27:47,22.2855,114.1577,73.96,50,1,15.99,clear sky
138,Bathsheba,BB,2022-04-07 17:30:35,13.2167,-59.5167,86.61,58,40,19.57,scattered clouds
139,Sao Joao Da Barra,BR,2022-04-07 17:26:27,-21.6403,-41.0511,82.49,69,97,11.79,overcast clouds
140,Lata,PT,2022-04-07 17:30:35,40.1629,-8.3327,58.82,65,23,8.1,few clouds
141,Falesti,MD,2022-04-07 17:30:36,47.5736,27.7092,54.01,62,100,16.53,overcast clouds
142,Werda,BW,2022-04-07 17:30:36,-25.2667,23.2833,69.93,26,97,7.76,overcast clouds
143,Stornoway,GB,2022-04-07 17:30:36,58.2093,-6.3865,42.93,75,20,24.16,few clouds
144,Sibolga,ID,2022-04-07 17:30:37,1.7427,98.7792,75.06,87,100,4.41,overcast clouds
145,Naze,JP,2022-04-07 17:30:37,28.3667,129.4833,61.72,68,100,11.3,overcast clouds
146,Aykhal,RU,2022-04-07 17:30:38,66.0,111.5,10.4,97,100,5.91,overcast clouds
147,Iqaluit,CA,2022-04-07 17:26:30,63.7506,-68.5145,17.33,67,75,3.44,broken clouds
148,Crateus,BR,2022-04-07 17:30:38,-5.1783,-40.6775,78.21,84,93,3.96,overcast clouds
149,Umba,RU,2022-04-07 17:30:39,66.6871,34.3429,27.09,91,84,11.48,broken clouds
150,Hilo,US,2022-04-07 17:30:39,19.7297,-155.09,73.26,84,75,10.36,broken clouds
151,Bolshaya Dzhalga,RU,2022-04-07 17:30:40,45.9695,42.6966,50.47,66,18,11.52,few clouds
152,Chuy,UY,2022-04-07 17:29:55,-33.6971,-53.4616,76.46,42,100,4.63,overcast clouds
153,Kenai,US,2022-04-07 17:30:02,60.5544,-151.2583,36.03,87,0,8.05,clear sky
154,Cidreira,BR,2022-04-07 17:30:40,-30.1811,-50.2056,72.19,83,97,9.35,overcast clouds
155,Minab,IR,2022-04-07 17:30:41,27.1467,57.0801,75.52,41,0,2.3,clear sky
156,Ancud,CL,2022-04-07 17:29:39,-41.8697,-73.8203,58.23,87,100,5.3,overcast clouds
157,Codrington,AU,2022-04-07 17:30:41,-38.2667,141.9667,54.77,92,3,7.74,clear sky
158,Chimbote,PE,2022-04-07 17:28:06,-9.0853,-78.5783,74.98,71,95,11.05,overcast clouds
159,Coihaique,CL,2022-04-07 17:30:42,-45.5752,-72.0662,51.75,71,40,3.44,scattered clouds
160,Sobolevo,RU,2022-04-07 17:30:42,54.4299,31.8996,45.25,89,100,12.53,overcast clouds
161,Ponta Delgada,PT,2022-04-07 17:30:48,37.7333,-25.6667,63.32,88,75,23.02,broken clouds
162,Leningradskiy,RU,2022-04-07 17:30:48,69.3833,178.4167,-6.0,97,100,11.16,overcast clouds
163,Mahibadhoo,MV,2022-04-07 17:30:49,3.7833,72.9667,83.91,64,50,0.11,scattered clouds
164,Inuvik,CA,2022-04-07 17:28:18,68.3499,-133.7218,27.46,50,75,8.05,broken clouds
165,Alihe,CN,2022-04-07 17:30:49,50.5667,123.7167,29.66,97,100,3.06,light snow
166,Kraskino,RU,2022-04-07 17:30:50,42.7114,130.7794,33.57,43,10,3.89,clear sky
167,Bengkulu,ID,2022-04-07 17:30:50,-3.8004,102.2655,73.45,81,84,4.09,broken clouds
168,Avesta,SE,2022-04-07 17:30:50,60.1455,16.1679,32.59,95,100,16.44,light snow
169,Roald,NO,2022-04-07 17:30:51,62.5833,6.1333,41.92,42,0,14.97,clear sky
170,Dongsheng,CN,2022-04-07 17:30:51,39.8161,109.9776,51.15,22,8,11.27,clear sky
171,Victor Harbor,AU,2022-04-07 17:30:51,-35.5667,138.6167,59.99,88,0,3.94,clear sky
172,Kavieng,PG,2022-04-07 17:30:52,-2.5744,150.7967,79.92,82,100,4.47,moderate rain
173,Pallasovka,RU,2022-04-07 17:30:53,50.05,46.8833,55.08,55,97,8.3,overcast clouds
174,Vila Velha,BR,2022-04-07 17:27:04,-20.3297,-40.2925,84.15,73,75,14.97,broken clouds
175,Cherskiy,RU,2022-04-07 17:30:53,68.75,161.3,-24.65,100,66,2.42,broken clouds
176,Dingle,PH,2022-04-07 17:30:53,10.9995,122.6711,74.44,96,100,7.52,heavy intensity rain
177,Usoke,TZ,2022-04-07 17:30:54,-5.1667,32.35,68.11,85,67,5.5,light rain
178,Vila Franca Do Campo,PT,2022-04-07 17:30:54,37.7167,-25.4333,63.01,91,100,19.82,overcast clouds
179,Edd,ER,2022-04-07 17:30:55,13.9297,41.6925,86.49,48,0,18.9,clear sky
180,Ahipara,NZ,2022-04-07 17:20:50,-35.1667,173.1667,58.51,81,10,6.04,clear sky
181,Gushikawa,JP,2022-04-07 17:30:55,26.3544,127.8686,65.43,80,0,8.05,clear sky
182,Upernavik,GL,2022-04-07 17:31:56,72.7868,-56.1549,7.72,88,94,2.93,overcast clouds
183,Asau,RO,2022-04-07 17:31:02,46.4333,26.4,51.28,62,99,1.52,overcast clouds
184,Labuhan,ID,2022-04-07 17:31:57,-6.8844,112.2051,77.83,86,93,9.26,overcast clouds
185,Alofi,NU,2022-04-07 17:31:57,-19.0595,-169.9187,71.49,94,100,2.3,overcast clouds
186,Ghanzi,BW,2022-04-07 17:31:57,-21.5667,21.7833,76.55,31,21,7.99,few clouds
187,Narsaq,GL,2022-04-07 17:25:24,60.9167,-46.05,37.62,72,98,4.34,overcast clouds
188,Locri,IT,2022-04-07 17:31:58,38.2414,16.2623,50.32,77,26,18.37,scattered clouds
189,Sabang,ID,2022-04-07 17:31:58,5.8933,95.3214,82.56,72,80,9.06,broken clouds
190,Hambantota,LK,2022-04-07 17:31:59,6.1241,81.1185,79.48,81,89,3.94,overcast clouds
191,Cayenne,GF,2022-04-07 17:29:16,4.9333,-52.3333,82.44,1,75,9.22,broken clouds
192,Airai,TL,2022-04-07 17:32:00,-8.9266,125.4092,59.32,89,95,2.48,moderate rain
193,Vila,PT,2022-04-07 17:32:00,42.0304,-8.1588,47.28,79,100,7.92,overcast clouds
194,Lagoa,PT,2022-04-07 17:32:00,39.05,-27.9833,59.95,88,100,20.89,overcast clouds
195,Inirida,CO,2022-04-07 17:32:01,3.8653,-67.9239,82.89,80,81,1.43,broken clouds
196,Praia Da Vitoria,PT,2022-04-07 17:32:01,38.7333,-27.0667,66.45,82,40,12.19,scattered clouds
197,Meadow Lake,US,2022-04-07 17:30:44,34.8014,-106.5436,56.07,11,0,9.35,clear sky
198,Petatlan,MX,2022-04-07 17:32:02,17.5167,-101.2667,80.4,44,92,7.07,overcast clouds
199,Zheleznogorsk,RU,2022-04-07 17:32:02,52.331,35.3711,48.63,74,90,12.08,overcast clouds
200,Tiznit,MA,2022-04-07 17:32:03,29.5833,-9.5,62.51,54,0,7.34,clear sky
201,Santa Rosa,PH,2022-04-07 17:29:08,14.3122,121.1114,80.58,79,97,7.0,overcast clouds
202,Los Llanos De Aridane,ES,2022-04-07 17:32:03,28.6585,-17.9182,64.15,79,40,9.22,scattered clouds
203,Daru,PG,2022-04-07 17:32:04,-9.0763,143.2092,79.11,84,87,9.66,overcast clouds
204,Lalmohan,BD,2022-04-07 17:32:04,22.3384,90.7419,80.33,79,8,10.67,clear sky
205,Kungalv,SE,2022-04-07 17:32:04,57.871,11.9805,43.11,94,95,4.61,light rain
206,Oktyabrskiy,RU,2022-04-07 17:32:05,54.4815,53.471,27.68,93,75,5.61,broken clouds
207,Esperance,AU,2022-04-07 17:32:05,-33.8667,121.9,62.44,64,41,17.78,scattered clouds
208,Rocha,UY,2022-04-07 17:32:06,-34.4833,-54.3333,81.46,34,100,5.19,overcast clouds
209,Khasan,RU,2022-04-07 17:32:06,42.4308,130.6434,36.21,40,1,5.17,clear sky
210,Padang,ID,2022-04-07 17:32:06,-0.9492,100.3543,78.12,72,100,3.18,light rain
211,Albesti,RO,2022-04-07 17:32:07,47.7,27.0667,55.96,44,100,14.38,overcast clouds
212,Torbay,CA,2022-04-07 17:32:07,47.6666,-52.7314,38.28,95,100,16.11,light intensity drizzle
213,Touros,BR,2022-04-07 17:25:20,-5.1989,-35.4608,86.72,62,69,13.78,broken clouds
214,Dolores,AR,2022-04-07 17:32:08,-36.3132,-57.6792,81.23,34,0,7.43,clear sky
215,Tabou,CI,2022-04-07 17:32:08,4.423,-7.3528,82.58,76,98,7.85,overcast clouds
216,Wanning,CN,2022-04-07 17:32:09,18.8003,110.3967,68.2,85,75,5.14,broken clouds
217,Greytown,ZA,2022-04-07 17:32:11,-29.0642,30.5928,51.71,96,100,3.65,overcast clouds
218,Havelock,US,2022-04-07 17:32:12,34.8791,-76.9013,81.01,77,40,17.27,scattered clouds
219,Teocaltiche,MX,2022-04-07 17:32:12,21.4333,-102.5833,76.51,24,34,8.1,scattered clouds
220,Kirakira,SB,2022-04-07 17:32:12,-10.4544,161.9205,80.24,83,100,7.65,overcast clouds
221,Avera,US,2022-04-07 17:32:13,33.194,-82.5271,70.56,42,88,15.26,overcast clouds
222,Tuatapere,NZ,2022-04-07 17:29:36,-46.1333,167.6833,51.03,77,80,9.48,broken clouds
223,Glenwood Springs,US,2022-04-07 17:32:13,39.5505,-107.3248,46.4,27,0,5.75,clear sky
224,Amnat Charoen,TH,2022-04-07 17:32:14,15.9167,104.75,71.73,52,33,17.87,scattered clouds
225,Tingo Maria,PE,2022-04-07 17:32:14,-9.2895,-76.0088,79.11,69,40,2.3,scattered clouds
226,Neftcala,AZ,2022-04-07 17:32:15,39.3742,49.2472,49.8,74,100,9.51,overcast clouds
227,Tuktoyaktuk,CA,2022-04-07 17:21:57,69.4541,-133.0374,15.8,73,75,10.36,broken clouds
228,Cumaral,CO,2022-04-07 17:32:15,4.2708,-73.4867,72.01,96,100,1.88,overcast clouds
229,Oksfjord,NO,2022-04-07 17:33:16,70.2396,22.3479,33.98,93,100,5.39,overcast clouds
230,Hualmay,PE,2022-04-07 17:33:16,-11.0964,-77.6139,74.75,72,55,11.95,broken clouds
231,Ucluelet,CA,2022-04-07 17:33:17,48.9329,-125.5528,54.09,69,100,10.25,overcast clouds
232,Beira,MZ,2022-04-07 17:33:17,-19.8436,34.8389,80.69,89,20,6.91,few clouds
233,Linxia,CN,2022-04-07 17:33:17,35.6003,103.2064,54.77,18,62,3.13,broken clouds
234,Hovd,MN,2022-04-07 17:29:33,48.0056,91.6419,50.86,30,51,9.1,broken clouds
235,Mercedes,AR,2022-04-07 17:33:18,-34.6515,-59.4307,80.85,31,0,7.76,light rain
236,Necochea,AR,2022-04-07 17:33:18,-38.5473,-58.7368,65.17,66,24,14.45,few clouds
237,Orange Cove,US,2022-04-07 17:33:19,36.6244,-119.3137,85.62,31,3,3.31,clear sky
238,Miechow,PL,2022-04-07 17:33:19,50.3565,20.0279,60.62,60,64,18.77,broken clouds
239,Freetown,SL,2022-04-07 17:33:20,8.484,-13.2299,85.71,74,75,6.91,broken clouds
240,Bethel,US,2022-04-07 17:25:22,41.3712,-73.414,51.46,90,100,3.0,light rain
241,Abnub,EG,2022-04-07 17:33:20,27.2696,31.1511,97.02,8,7,5.12,clear sky
242,Diamantino,BR,2022-04-07 17:33:21,-14.4086,-56.4461,92.46,42,0,2.86,clear sky
243,Okhotsk,RU,2022-04-07 17:25:25,59.3833,143.3,15.94,88,100,8.99,overcast clouds
244,Fairbanks,US,2022-04-07 17:30:54,64.8378,-147.7164,26.6,76,75,4.61,broken clouds
245,Vestmannaeyjar,IS,2022-04-07 17:33:22,63.4427,-20.2734,38.39,48,0,6.91,clear sky
246,Malpe,IN,2022-04-07 17:33:22,13.35,74.7167,85.3,80,28,3.98,scattered clouds
247,Lompoc,US,2022-04-07 17:32:29,34.6391,-120.4579,85.69,32,0,5.75,clear sky
248,Margate,GB,2022-04-07 17:30:12,51.3813,1.3862,52.88,47,51,11.99,broken clouds
249,Saint Anthony,US,2022-04-07 17:33:23,45.0205,-93.218,38.82,80,100,21.85,overcast clouds
250,Kiruna,SE,2022-04-07 17:33:23,67.8557,20.2251,23.92,86,40,5.75,scattered clouds
251,Pokhara,NP,2022-04-07 17:33:24,28.2333,83.9833,73.76,46,88,4.7,overcast clouds
252,Xuanzhou,CN,2022-04-07 17:33:24,30.9525,118.7553,62.02,67,0,4.29,clear sky
253,Mehamn,NO,2022-04-07 17:33:25,71.0357,27.8492,33.71,100,100,18.41,shower snow
254,Sungaipenuh,ID,2022-04-07 17:33:25,-2.0833,101.3833,63.43,81,100,1.05,overcast clouds
255,Valley City,US,2022-04-07 17:33:26,46.9233,-98.0032,32.52,93,100,26.46,overcast clouds
256,Sonoita,MX,2022-04-07 17:33:26,31.85,-112.8333,86.56,4,0,14.74,clear sky
257,Beringovskiy,RU,2022-04-07 17:33:26,63.05,179.3167,-10.46,90,65,5.95,broken clouds
258,Balangiga,PH,2022-04-07 17:33:27,11.1097,125.3875,76.48,93,100,9.86,moderate rain
259,Millbrook,US,2022-04-07 17:33:27,32.4799,-86.3619,71.64,34,0,13.8,clear sky
260,Sibu,MY,2022-04-07 17:33:28,2.3,111.8167,73.71,100,40,2.3,light rain
261,Baghdad,IQ,2022-04-07 17:30:57,33.3406,44.4009,80.51,19,56,5.75,broken clouds
262,Guangyuan,CN,2022-04-07 17:33:28,32.442,105.823,59.43,78,0,1.83,clear sky
263,Calatayud,ES,2022-04-07 17:33:29,41.3535,-1.6432,62.56,40,44,19.71,scattered clouds
264,Novolabinskaya,RU,2022-04-07 17:33:29,45.1096,39.894,51.49,73,5,12.62,clear sky
265,Verkhnyaya Balkariya,RU,2022-04-07 17:33:29,43.1279,43.4573,38.32,88,99,7.23,overcast clouds
266,Soyo,AO,2022-04-07 17:33:30,-6.1349,12.3689,78.8,87,88,8.81,overcast clouds
267,Kon Tum,VN,2022-04-07 17:33:30,14.35,108.0,61.75,87,96,3.27,overcast clouds
268,Iskateley,RU,2022-04-07 17:33:31,67.6803,53.1512,3.42,91,100,7.72,overcast clouds
269,Ambilobe,MG,2022-04-07 17:33:31,-13.2,49.05,75.51,94,100,1.7,moderate rain
270,Batouri,CM,2022-04-07 17:33:31,4.4333,14.3667,80.71,58,97,1.36,overcast clouds
271,Ilhabela,BR,2022-04-07 17:33:32,-23.7781,-45.3581,75.2,76,61,4.05,broken clouds
272,Yantongshan,CN,2022-04-07 17:33:32,43.2919,126.0094,33.82,38,1,7.74,clear sky
273,Mayo,US,2022-04-07 17:33:33,38.8876,-76.5119,56.98,95,100,3.44,mist
274,Dunedin,NZ,2022-04-07 17:30:39,-45.8742,170.5036,48.49,67,19,12.97,few clouds
275,Port Augusta,AU,2022-04-07 17:33:33,-32.5,137.7667,61.84,74,0,8.28,clear sky
276,Novominskaya,RU,2022-04-07 17:33:34,46.3163,38.9586,52.66,68,4,11.59,clear sky
277,Tokur,RU,2022-04-07 17:34:34,53.1333,132.9,-6.66,100,85,3.2,overcast clouds
278,Ville-Marie,CA,2022-04-07 17:34:35,47.3335,-79.433,49.41,72,89,6.24,overcast clouds
279,Ambulu,ID,2022-04-07 17:34:35,-8.345,113.6058,74.97,92,84,2.71,broken clouds
280,Pierre,US,2022-04-07 17:34:35,44.3683,-100.351,38.86,75,100,27.63,overcast clouds
281,Lucapa,AO,2022-04-07 17:34:36,-8.4192,20.7447,68.99,91,73,2.51,light rain
282,Dannenberg,DE,2022-04-07 17:34:36,53.0967,11.09,45.14,78,85,22.64,overcast clouds
283,Saskylakh,RU,2022-04-07 17:34:37,71.9167,114.0833,-24.11,100,13,2.24,few clouds
284,Makakilo City,US,2022-04-07 17:34:37,21.3469,-158.0858,75.18,65,0,12.66,clear sky
285,Port-Cartier,CA,2022-04-07 17:34:38,50.0334,-66.8654,39.31,94,69,3.91,broken clouds
286,Vaini,TO,2022-04-07 17:34:38,-21.2,-175.2,75.36,100,75,2.3,broken clouds
287,Kailua,US,2022-04-07 17:34:39,21.4022,-157.7394,76.64,71,75,10.36,broken clouds
288,Cariati,IT,2022-04-07 17:34:39,39.4922,16.9594,56.55,65,0,9.22,clear sky
289,Mikhaylovka,RU,2022-04-07 17:34:39,50.06,43.2379,52.79,58,94,6.78,overcast clouds
290,Surt,LY,2022-04-07 17:34:40,31.2089,16.5887,61.63,72,3,17.29,clear sky
291,Honningsvag,NO,2022-04-07 17:34:40,70.9821,25.9704,35.35,80,100,27.63,light rain and snow
292,Tateyama,JP,2022-04-07 17:34:41,34.9833,139.8667,55.09,68,0,15.03,clear sky
293,Somanda,TZ,2022-04-07 17:34:41,-3.3667,33.95,70.66,70,40,1.28,light rain
294,Gold Coast,AU,2022-04-07 17:34:41,-28.0,153.4333,69.01,96,100,10.36,moderate rain
295,Katsuura,JP,2022-04-07 17:34:42,35.1333,140.3,59.27,76,0,14.34,clear sky
296,Oranjestad,AW,2022-04-07 17:34:42,12.524,-70.027,84.15,70,40,24.16,scattered clouds
297,Russkaya Polyana,UA,2022-04-07 17:34:43,49.417,31.9201,52.27,55,69,10.74,broken clouds
298,Kyshtovka,RU,2022-04-07 17:34:43,56.555,76.6271,31.77,88,88,8.57,overcast clouds
299,Mareeba,AU,2022-04-07 17:34:44,-17.0,145.4333,70.52,94,76,1.66,broken clouds
300,El Alto,PE,2022-04-07 17:34:44,-4.2714,-81.2147,83.86,64,86,15.73,overcast clouds
301,Khoy,IR,2022-04-07 17:34:44,38.5504,44.9535,50.86,65,56,3.49,broken clouds
302,Olavarria,AR,2022-04-07 17:30:05,-36.8927,-60.3225,79.02,58,3,9.06,clear sky
303,Colac,AU,2022-04-07 17:34:45,-38.3333,143.5833,58.84,78,74,10.36,broken clouds
304,Synya,RU,2022-04-07 17:34:45,65.3718,58.0387,10.47,94,100,7.49,overcast clouds
305,Nizwa,OM,2022-04-07 17:34:46,22.9333,57.5333,85.6,20,21,3.58,few clouds
306,Adrar,MR,2022-04-07 17:34:46,20.5022,-10.0711,88.07,13,0,13.51,clear sky
307,Deputatskiy,RU,2022-04-07 17:34:46,69.3,139.9,-18.22,100,100,2.48,overcast clouds
308,Grindavik,IS,2022-04-07 17:34:47,63.8424,-22.4338,35.55,55,75,12.66,broken clouds
309,Lorengau,PG,2022-04-07 17:34:47,-2.0226,147.2712,80.73,83,99,16.35,overcast clouds
310,Mahebourg,MU,2022-04-07 17:34:48,-20.4081,57.7,79.09,83,40,10.36,scattered clouds
311,Kisangani,CD,2022-04-07 17:34:48,0.5167,25.2,74.84,85,52,2.13,broken clouds
312,Poum,NC,2022-04-07 17:34:49,-20.2333,164.0167,81.41,82,100,20.69,overcast clouds
313,Nanortalik,GL,2022-04-07 17:34:49,60.1432,-45.2371,31.71,84,99,8.79,overcast clouds
314,Pilar,BR,2022-04-07 17:34:49,-9.5972,-35.9567,78.73,64,59,9.93,broken clouds
315,Port Lincoln,AU,2022-04-07 17:30:43,-34.7333,135.8667,60.12,88,45,7.7,scattered clouds
316,Cervo,ES,2022-04-07 17:34:50,43.6702,-7.4101,54.97,71,100,20.74,overcast clouds
317,Clyde River,CA,2022-04-07 17:34:50,70.4692,-68.5914,10.63,85,100,13.8,light snow
318,Omboue,GA,2022-04-07 17:34:51,-1.5746,9.2618,79.68,86,96,9.28,overcast clouds
319,Batemans Bay,AU,2022-04-07 17:30:49,-35.7167,150.1833,62.1,89,100,4.99,light rain
320,Yumen,CN,2022-04-07 17:34:51,40.2833,97.2,58.89,14,2,16.49,clear sky
321,Talnakh,RU,2022-04-07 17:30:22,69.4865,88.3972,11.08,99,100,4.76,overcast clouds
322,Hackettstown,US,2022-04-07 17:34:52,40.854,-74.8291,48.0,85,100,11.05,overcast clouds
323,Riedlingen,DE,2022-04-07 17:34:52,48.1545,9.4756,51.89,84,100,28.52,overcast clouds
324,Isangel,VU,2022-04-07 17:34:53,-19.55,169.2667,79.79,79,100,12.44,overcast clouds
325,Kodinsk,RU,2022-04-07 17:35:53,58.6881,99.1844,26.82,91,74,8.03,broken clouds
326,Zhigansk,RU,2022-04-07 17:35:54,66.7697,123.3711,-12.95,100,85,6.4,overcast clouds
327,Denpasar,ID,2022-04-07 17:30:54,-8.65,115.2167,76.71,94,40,5.75,scattered clouds
328,Coquimbo,CL,2022-04-07 17:35:54,-29.9533,-71.3436,62.33,77,0,13.8,clear sky
329,Suez,EG,2022-04-07 17:35:55,29.9737,32.5263,84.54,17,98,7.11,overcast clouds
330,Yenagoa,NG,2022-04-07 17:35:55,4.9247,6.2642,83.82,68,79,9.4,broken clouds
331,Kasongo-Lunda,CD,2022-04-07 17:35:56,-6.4667,16.8167,73.47,94,63,3.89,moderate rain
332,Ulaanbaatar,MN,2022-04-07 17:35:56,47.9077,106.8832,39.33,26,40,4.47,scattered clouds
333,Changping,CN,2022-04-07 17:35:57,40.2186,116.2197,51.44,36,2,3.22,clear sky
334,Bilibino,RU,2022-04-07 17:26:27,68.0546,166.4372,-22.79,97,82,2.95,broken clouds
335,Na Wa,TH,2022-04-07 17:35:57,17.4897,104.1006,73.35,50,72,8.43,broken clouds
336,Sapa,PH,2022-04-07 17:35:57,5.1544,120.3241,79.03,84,92,12.53,overcast clouds
337,Kalmunai,LK,2022-04-07 17:35:58,7.4167,81.8167,80.22,80,77,0.63,broken clouds
338,Srikakulam,IN,2022-04-07 17:35:58,18.3,83.9,78.22,89,4,5.19,clear sky
339,Dodola,ET,2022-04-07 17:35:59,6.9833,39.1833,56.25,71,99,3.91,light rain
340,Laguna,US,2022-04-07 17:32:14,38.421,-121.4238,80.17,44,0,4.61,clear sky
341,Kutum,SD,2022-04-07 17:36:00,14.2,24.6667,84.07,7,2,10.87,clear sky
342,Ilulissat,GL,2022-04-07 17:36:01,69.2167,-51.1,21.22,86,100,6.91,light shower snow
343,Smithers,CA,2022-04-07 17:31:50,54.7804,-127.1743,32.32,100,100,3.44,mist
344,Korla,CN,2022-04-07 17:36:01,41.7597,86.1469,66.18,18,0,3.47,clear sky
345,Kirovskiy,RU,2022-04-07 17:36:02,45.0917,133.5136,29.35,49,7,5.66,clear sky
346,Jardim,BR,2022-04-07 17:36:02,-21.4803,-56.1381,94.69,37,94,6.11,overcast clouds
347,Sai Buri,TH,2022-04-07 17:36:02,6.7013,101.6168,79.97,85,97,5.61,overcast clouds
348,Kieta,PG,2022-04-07 17:33:57,-6.2167,155.6333,75.99,94,100,6.06,moderate rain
349,Qinzhou,CN,2022-04-07 17:36:05,21.95,108.6167,70.56,64,0,3.8,clear sky
350,Canon City,US,2022-04-07 17:36:05,38.441,-105.2424,54.39,16,0,16.11,clear sky
351,Luderitz,NA,2022-04-07 17:36:06,-26.6481,15.1594,68.38,50,53,18.99,broken clouds
352,Thompson,CA,2022-04-07 17:36:06,55.7435,-97.8558,33.96,44,20,6.91,few clouds
353,Kiama,AU,2022-04-07 17:36:06,-34.6833,150.8667,68.0,80,97,5.01,light rain
354,Staryy Nadym,RU,2022-04-07 17:36:07,65.6118,72.6842,-4.77,100,100,5.53,overcast clouds
355,Okha,RU,2022-04-07 17:36:07,53.5739,142.9478,20.46,91,91,6.58,overcast clouds
356,Fontem,CM,2022-04-07 17:36:08,5.4685,9.8818,72.16,86,100,1.28,moderate rain
357,Mangrol,IN,2022-04-07 17:36:08,21.1167,70.1167,83.91,53,61,13.22,broken clouds
358,Gamba,GA,2022-04-07 17:36:09,-2.65,10.0,78.42,89,78,8.57,light rain
359,Tromso,NO,2022-04-07 17:36:09,69.6496,18.957,33.82,60,20,11.5,few clouds
360,Lahij,YE,2022-04-07 17:36:09,13.1667,44.5833,76.89,60,94,4.88,overcast clouds
361,Raga,SS,2022-04-07 17:36:10,8.4596,25.678,77.32,55,78,2.39,broken clouds
362,Punta De Bombon,PE,2022-04-07 17:35:34,-17.1717,-71.7931,70.79,72,25,7.72,scattered clouds
363,Zhezkazgan,KZ,2022-04-07 17:36:10,47.8043,67.7144,41.43,74,81,9.75,broken clouds
364,Medina Del Campo,ES,2022-04-07 17:36:11,41.3124,-4.9141,60.76,49,54,15.88,broken clouds
365,Bitung,ID,2022-04-07 17:36:11,1.4451,125.1824,77.85,83,69,3.04,broken clouds
366,Labuan,MY,2022-04-07 17:36:12,5.2767,115.2417,77.36,94,20,2.3,few clouds
367,Mahendranagar,NP,2022-04-07 17:36:12,28.9167,80.3333,78.35,14,0,5.73,clear sky
368,Carupano,VE,2022-04-07 17:36:12,10.6678,-63.2585,85.41,61,92,16.96,overcast clouds
369,Lasa,IT,2022-04-07 17:37:13,46.6166,10.7002,50.88,98,98,3.69,overcast clouds
370,Mitsamiouli,KM,2022-04-07 17:37:13,-11.3847,43.2844,82.27,74,25,5.19,scattered clouds
371,Det Udom,TH,2022-04-07 17:37:14,14.906,105.0784,75.02,49,94,9.1,overcast clouds
372,Umm Kaddadah,SD,2022-04-07 17:37:14,13.6017,26.6876,88.5,9,0,12.91,clear sky
373,Irtyshskiy,RU,2022-04-07 17:37:14,58.3333,68.1333,34.5,93,100,10.78,overcast clouds
374,Shimoda,JP,2022-04-07 17:37:15,34.6667,138.95,56.1,63,0,19.26,clear sky
375,Balkhash,KZ,2022-04-07 17:37:15,46.844,74.9804,47.55,66,50,13.29,scattered clouds
376,Nara,JP,2022-04-07 17:37:16,34.6851,135.8049,55.49,56,44,4.72,scattered clouds
377,Balakovo,RU,2022-04-07 17:37:16,52.0278,47.8007,45.34,86,71,6.42,broken clouds
378,Forbes,AU,2022-04-07 17:37:17,-33.3833,148.0167,60.93,88,100,15.01,light rain
379,Lithgow,AU,2022-04-07 17:37:17,-33.4833,150.15,53.47,98,100,11.36,light rain
380,Zhuhai,CN,2022-04-07 17:37:18,22.2769,113.5678,73.85,73,0,3.44,clear sky
381,Kidal,ML,2022-04-07 17:37:18,18.4411,1.4078,99.25,4,3,6.85,clear sky
382,Silver City,US,2022-04-07 17:37:18,32.7701,-108.2803,65.68,8,0,8.01,clear sky
383,Meridian,US,2022-04-07 17:37:19,43.6121,-116.3915,57.52,35,0,9.22,clear sky
384,Tiarei,PF,2022-04-07 17:37:19,-17.5333,-149.3333,80.62,72,17,21.18,few clouds
385,Yaan,NG,2022-04-07 17:37:20,7.3833,8.5667,95.65,32,68,9.73,broken clouds
386,Tarakan,ID,2022-04-07 17:37:20,3.3,117.6333,81.48,75,99,0.13,light rain
387,Ribeira Grande,PT,2022-04-07 17:37:21,38.5167,-28.7,64.8,77,40,21.85,scattered clouds
388,Kahului,US,2022-04-07 17:37:21,20.8947,-156.47,75.85,70,0,16.11,clear sky
389,Liverpool,GB,2022-04-07 17:37:21,53.4106,-2.9779,46.35,60,40,18.41,scattered clouds
390,Gweru,ZW,2022-04-07 17:37:22,-19.45,29.8167,73.09,38,55,5.88,broken clouds
391,Aklavik,CA,2022-04-07 17:37:22,68.2191,-135.0107,15.8,73,75,4.61,broken clouds
392,Ballina,AU,2022-04-07 17:37:23,-28.8667,153.5667,71.56,90,75,11.5,broken clouds
393,Raymore,US,2022-04-07 17:37:21,38.8019,-94.4527,49.73,45,100,21.85,overcast clouds
394,Olga,RU,2022-04-07 17:37:23,43.7444,135.2892,29.7,81,9,5.21,clear sky
395,Arenys De Mar,ES,2022-04-07 17:37:24,41.5819,2.5494,74.19,72,35,11.95,scattered clouds
396,Harlingen,US,2022-04-07 17:33:37,26.1906,-97.6961,78.76,23,0,19.57,clear sky
397,Innisfail,AU,2022-04-07 17:37:24,-17.5333,146.0333,73.18,86,79,4.27,broken clouds
398,Bahia Blanca,AR,2022-04-07 17:37:25,-38.7196,-62.2724,76.46,39,100,8.84,overcast clouds
399,Zoersel,BE,2022-04-07 17:37:25,51.2675,4.7126,53.11,58,20,24.16,few clouds
400,Manica,FR,2022-04-07 17:37:26,49.0,-1.1667,47.34,78,95,14.76,overcast clouds
401,Angoche,MZ,2022-04-07 17:37:26,-16.2325,39.9086,77.99,86,5,7.96,light rain
402,Xiongyue,CN,2022-04-07 17:37:26,40.1774,122.1228,46.99,47,1,10.33,clear sky
403,Vanavara,RU,2022-04-07 17:37:27,60.34,102.2797,25.45,89,100,9.89,overcast clouds
404,Cockburn Town,TC,2022-04-07 17:36:31,21.4612,-71.1419,78.84,76,10,19.3,clear sky
405,Eirunepe,BR,2022-04-07 17:37:28,-6.6603,-69.8736,81.66,87,95,3.8,overcast clouds
406,Kushchevskaya,RU,2022-04-07 17:37:29,46.5564,39.6386,53.76,61,14,12.01,few clouds
407,San Cristobal,VE,2022-04-07 17:37:29,7.7669,-72.225,84.38,42,74,7.23,broken clouds
408,Sur,OM,2022-04-07 17:37:30,22.5667,59.5289,85.12,44,2,2.77,clear sky
409,Lavrentiya,RU,2022-04-07 17:37:30,65.5833,-171.0,-10.32,94,100,6.26,overcast clouds
410,Saskatoon,CA,2022-04-07 17:37:07,52.1168,-106.6345,44.17,67,40,5.99,scattered clouds
411,Santa Cruz,BO,2022-04-07 17:36:31,-17.8,-63.1667,89.65,55,75,17.27,broken clouds
412,Belyy Yar,RU,2022-04-07 17:37:31,53.6039,91.3903,37.85,59,0,2.24,clear sky
413,Hit,IQ,2022-04-07 17:37:31,33.6416,42.8251,77.63,21,64,8.19,broken clouds
414,Kijang,KR,2022-04-07 17:37:32,35.2442,129.2139,55.2,44,2,3.78,clear sky
415,Husavik,IS,2022-04-07 17:37:32,66.0449,-17.3389,26.91,73,95,3.76,overcast clouds
416,Kailahun,SL,2022-04-07 17:37:33,8.2833,-10.5667,78.24,78,100,1.92,overcast clouds
417,Balkanabat,TM,2022-04-07 17:38:36,39.5108,54.3671,66.16,43,100,4.34,overcast clouds
418,Kathmandu,NP,2022-04-07 17:34:58,27.7167,85.3167,68.22,73,40,4.61,scattered clouds
419,Nemuro,JP,2022-04-07 17:38:37,43.3236,145.575,32.09,98,100,11.39,snow
420,Hamilton,US,2022-04-07 17:33:50,39.1834,-84.5333,52.95,57,75,14.97,broken clouds
421,Gravdal,NO,2022-04-07 17:38:38,68.1214,13.5031,33.69,55,0,2.3,clear sky
422,Samfya,ZM,2022-04-07 17:38:38,-11.3649,29.5565,67.51,87,100,4.25,light rain
423,San Quintin,MX,2022-04-07 17:34:40,30.4833,-115.95,76.57,39,3,6.38,clear sky
424,Palencia,ES,2022-04-07 17:38:39,42.4167,-4.5,57.92,57,66,14.92,broken clouds
425,Tutoia,BR,2022-04-07 17:38:39,-2.7619,-42.2744,81.75,80,95,10.83,overcast clouds
426,Sao Jose Da Coroa Grande,BR,2022-04-07 17:38:40,-8.8978,-35.1478,82.99,71,51,8.23,broken clouds
427,Vanimo,PG,2022-04-07 17:38:40,-2.6741,141.3028,77.86,90,100,7.58,light rain
428,Barra Da Estiva,BR,2022-04-07 17:34:35,-13.6261,-41.3269,81.97,31,4,5.39,clear sky
429,Xiongzhou,CN,2022-04-07 17:38:41,25.1167,114.3,63.48,63,5,1.48,clear sky
430,Matara,LK,2022-04-07 17:38:41,5.9485,80.5353,78.04,88,93,2.48,overcast clouds
431,Slave Lake,CA,2022-04-07 17:38:41,55.2834,-114.769,48.18,27,75,13.8,broken clouds
432,Flinders,AU,2022-04-07 17:38:42,-34.5833,150.8552,67.37,82,98,4.0,light rain
433,Salalah,OM,2022-04-07 17:38:42,17.0151,54.0924,80.69,78,0,5.75,clear sky
434,Baykit,RU,2022-04-07 17:34:02,61.67,96.37,24.85,95,100,5.44,light snow
435,Kingsport,US,2022-04-07 17:37:38,36.5484,-82.5618,64.54,43,40,8.99,scattered clouds
436,Pacific Grove,US,2022-04-07 17:38:43,36.6177,-121.9166,86.54,34,0,3.44,clear sky
437,Saldanha,ZA,2022-04-07 17:38:44,-33.0117,17.9442,60.85,71,44,25.14,scattered clouds
438,Pangnirtung,CA,2022-04-07 17:38:44,66.1451,-65.7125,8.6,85,100,2.3,light snow
439,Port Moresby,PG,2022-04-07 17:38:44,-9.4431,147.1797,75.61,85,75,3.74,broken clouds
440,Hasaki,JP,2022-04-07 17:38:45,35.7333,140.8333,50.4,88,8,14.5,clear sky
441,Chapais,CA,2022-04-07 17:38:45,49.7834,-74.8492,38.98,96,100,14.34,overcast clouds
442,Sitka,US,2022-04-07 17:38:46,57.0531,-135.33,42.69,70,100,16.11,light rain
443,Mathathane,BW,2022-04-07 17:38:46,-22.2687,28.7495,85.21,28,29,15.46,scattered clouds
444,Udomlya,RU,2022-04-07 17:38:47,57.8794,34.9925,39.85,99,100,9.35,overcast clouds
445,Crewe,GB,2022-04-07 17:38:47,53.0979,-2.4416,46.02,78,86,7.0,overcast clouds
446,Mamallapuram,IN,2022-04-07 17:38:48,12.6264,80.1722,86.05,78,85,8.03,overcast clouds
447,General Pico,AR,2022-04-07 17:38:48,-35.6566,-63.7568,87.33,30,2,10.31,clear sky
448,Mount Isa,AU,2022-04-07 17:38:52,-20.7333,139.5,73.17,23,0,9.22,light rain
449,Amli,IN,2022-04-07 17:38:52,20.2833,73.0167,83.5,48,48,2.21,scattered clouds
450,San Luis,AR,2022-04-07 17:38:52,-33.295,-66.3356,84.9,26,0,5.82,clear sky
451,Konibodom,TJ,2022-04-07 17:38:53,40.2843,70.4426,72.48,38,100,4.63,overcast clouds
452,Oxelosund,SE,2022-04-07 17:38:53,58.6706,17.1015,37.78,100,75,14.97,light rain
453,Alta Floresta,BR,2022-04-07 17:38:54,-9.8756,-56.0861,91.22,58,40,3.44,scattered clouds
454,Yar-Sale,RU,2022-04-07 17:38:54,66.8333,70.8333,-2.6,98,100,7.74,overcast clouds
455,Buguruslan,RU,2022-04-07 17:38:55,53.6554,52.442,26.91,96,47,3.67,scattered clouds
456,Fort Nelson,CA,2022-04-07 17:38:55,58.8053,-122.7002,33.39,47,75,2.3,broken clouds
457,Nsunga,TZ,2022-04-07 17:38:56,-1.1439,31.3947,65.23,89,59,2.89,light rain
458,Lewiston,US,2022-04-07 17:38:57,44.1003,-70.2148,50.32,74,100,1.01,light rain
459,Nueve De Julio,AR,2022-04-07 17:39:58,-35.4444,-60.8831,83.37,34,0,6.96,clear sky
460,Riosucio,CO,2022-04-07 17:39:58,5.4216,-75.7032,67.69,82,100,2.33,overcast clouds
461,Kaitangata,NZ,2022-04-07 17:39:58,-46.2817,169.8464,50.68,63,69,14.07,broken clouds
462,Harbour Breton,CA,2022-04-07 17:39:59,47.4833,-55.7983,40.26,76,100,15.32,overcast clouds
463,Acarau,BR,2022-04-07 17:39:59,-2.8856,-40.12,82.53,76,82,13.96,broken clouds
464,Pontian Kecil,MY,2022-04-07 17:40:00,1.4801,103.3899,75.52,87,100,5.03,overcast clouds
465,Luba,GQ,2022-04-07 17:40:00,3.4568,8.5547,81.91,86,70,11.56,broken clouds
466,Ewa Beach,US,2022-04-07 17:40:01,21.3156,-158.0072,75.6,65,0,12.66,clear sky
467,Salaverry,PE,2022-04-07 17:40:01,-8.2333,-78.9667,64.78,84,90,9.42,overcast clouds
468,Kloulklubed,PW,2022-04-07 17:40:02,7.0419,134.2556,77.5,88,100,5.55,light rain
469,Zhanaozen,KZ,2022-04-07 17:40:02,43.3,52.8,59.11,46,98,12.97,overcast clouds
470,Bilma,NE,2022-04-07 17:40:03,18.6853,12.9164,95.14,5,3,7.63,clear sky
471,Sungairaya,ID,2022-04-07 17:40:03,0.7,108.9,78.08,86,100,6.53,light rain
472,Maldonado,UY,2022-04-07 17:40:04,-34.6667,-54.9167,76.39,44,91,9.44,light rain
473,Quatre Cocos,MU,2022-04-07 17:40:04,-20.2078,57.7625,78.91,83,65,13.15,light rain
474,Antsohihy,MG,2022-04-07 17:40:05,-14.8796,47.9875,76.17,92,82,0.58,light rain
475,Khani,GE,2022-04-07 17:40:06,41.9563,42.9566,49.57,96,86,7.05,overcast clouds
476,Sirjan,IR,2022-04-07 17:40:06,29.452,55.6814,69.76,14,58,5.57,broken clouds
477,Tabas,IR,2022-04-07 17:40:07,33.5959,56.9244,79.02,9,56,4.61,broken clouds
478,San Pedro,PH,2022-04-07 17:37:45,14.35,121.0167,79.83,80,75,2.3,broken clouds
479,Chiplun,IN,2022-04-07 17:40:07,17.5333,73.5167,78.13,78,7,1.74,clear sky
480,Akureyri,IS,2022-04-07 17:40:08,65.6835,-18.0878,28.33,64,20,6.91,few clouds
481,Fukue,JP,2022-04-07 17:40:08,32.6881,128.8419,59.16,59,0,11.77,clear sky
482,Abapo,BO,2022-04-07 17:40:09,-18.8333,-63.4667,88.59,38,27,9.78,scattered clouds
483,Toora-Khem,RU,2022-04-07 17:40:09,52.4675,96.11,31.68,97,85,0.31,overcast clouds
484,Lenoir City,US,2022-04-07 17:39:48,35.7973,-84.256,65.91,36,18,11.01,few clouds
485,San Antonio,US,2022-04-07 17:35:40,29.4241,-98.4936,76.84,14,0,17.27,clear sky
486,Batagay-Alyta,RU,2022-04-07 17:40:10,67.8006,130.4114,-10.57,96,79,5.93,broken clouds
487,Comodoro Rivadavia,AR,2022-04-07 17:40:10,-45.8667,-67.5,51.66,93,100,11.5,light rain
488,Conceicao Do Araguaia,BR,2022-04-07 17:40:11,-8.2578,-49.2647,85.69,68,91,5.75,overcast clouds
489,Moose Factory,CA,2022-04-07 17:40:11,51.2585,-80.6094,33.8,69,100,12.66,overcast clouds
490,Aitape,PG,2022-04-07 17:40:11,-3.1374,142.3475,77.99,89,92,5.77,overcast clouds
491,Kirkland Lake,CA,2022-04-07 17:40:12,48.1446,-80.0377,39.49,93,100,5.7,overcast clouds
492,Cordoba,AR,2022-04-07 17:39:31,-31.4135,-64.1811,86.41,51,20,8.05,few clouds
493,Eagle Pass,US,2022-04-07 17:40:13,28.7091,-100.4995,74.26,26,0,9.22,clear sky
494,Srednekolymsk,RU,2022-04-07 17:40:13,67.45,153.6833,-15.75,100,23,6.58,few clouds
495,Camacari,BR,2022-04-07 17:40:13,-12.6975,-38.3242,87.57,52,11,8.77,light rain
496,Sivaki,RU,2022-04-07 17:40:14,52.6333,126.75,25.84,60,100,5.88,overcast clouds
497,Natitingou,BJ,2022-04-07 17:40:14,10.3042,1.3796,84.81,49,76,6.6,broken clouds
498,Leshukonskoye,RU,2022-04-07 17:40:15,64.8989,45.7622,25.68,96,89,0.69,overcast clouds
499,Stony Plain,CA,2022-04-07 17:37:15,53.5334,-114.0021,49.75,30,0,25.32,clear sky
500,Maceio,BR,2022-04-07 17:36:46,-9.6658,-35.7353,80.04,78,75,10.36,broken clouds
501,Lichinga,MZ,2022-04-07 17:40:16,-13.3128,35.2406,66.29,94,40,3.44,scattered clouds
502,Puteyets,RU,2022-04-07 17:40:16,65.1716,57.091,9.16,96,100,7.29,overcast clouds
503,Brae,GB,2022-04-07 17:40:17,60.3964,-1.353,41.45,63,21,22.03,few clouds
504,Umm Lajj,SA,2022-04-07 17:40:17,25.0213,37.2685,80.22,53,30,5.55,scattered clouds
505,Upata,VE,2022-04-07 17:40:18,8.0086,-62.3989,93.87,28,56,5.41,broken clouds
506,Koutsouras,GR,2022-04-07 17:40:18,35.0339,25.9469,67.1,73,99,12.59,overcast clouds
507,Ust-Nera,RU,2022-04-07 17:36:42,64.5667,143.2,14.04,93,100,3.96,overcast clouds
508,The Valley,AI,2022-04-07 17:41:15,18.217,-63.0578,84.06,69,20,14.97,few clouds
509,Tamandare,BR,2022-04-07 17:41:19,-8.7597,-35.1047,83.21,69,58,7.61,broken clouds
510,Neverkino,RU,2022-04-07 17:41:19,52.7854,46.7417,36.61,94,98,6.26,overcast clouds
511,Meulaboh,ID,2022-04-07 17:41:20,4.1363,96.1285,76.12,86,100,4.85,overcast clouds
512,Deep River,CA,2022-04-07 17:41:20,46.1001,-77.4995,47.43,85,100,6.35,overcast clouds
513,Rio Claro,BR,2022-04-07 17:41:21,-22.4114,-47.5614,82.35,55,7,3.65,clear sky
514,Yvetot,FR,2022-04-07 17:41:21,49.6174,0.7581,52.14,76,86,23.42,overcast clouds
515,Iglesias,IT,2022-04-07 17:41:22,39.3114,8.535,58.73,93,4,9.06,clear sky
516,Pangkalanbuun,ID,2022-04-07 17:41:22,-2.6833,111.6167,72.95,98,51,3.27,broken clouds
517,Port Keats,AU,2022-04-07 17:41:22,-14.25,129.55,80.06,82,88,3.74,overcast clouds
518,Clarence Town,AU,2022-04-07 17:41:23,-32.5833,151.7833,70.86,95,95,3.27,light rain
519,Sorong,ID,2022-04-07 17:41:23,-0.8833,131.25,78.82,83,100,7.2,overcast clouds
520,Bud,US,2022-04-07 17:41:24,39.447,-86.1758,49.87,53,45,16.06,scattered clouds
521,Payson,US,2022-04-07 17:41:24,40.0444,-111.7321,53.46,32,1,3.0,clear sky
522,Nantucket,US,2022-04-07 17:39:49,41.2835,-70.0995,55.51,66,0,20.71,clear sky
523,Baley,RU,2022-04-07 17:41:25,51.6,116.6333,39.0,62,68,12.91,broken clouds
524,Guerrero Negro,MX,2022-04-07 17:41:25,27.9769,-114.0611,80.24,31,0,6.82,clear sky
525,San Andres,CO,2022-04-07 17:37:40,12.5847,-81.7006,86.02,70,40,12.66,scattered clouds
526,Mokhotlong,LS,2022-04-07 17:41:26,-29.2894,29.0675,44.46,78,50,6.42,scattered clouds
527,Kholmy,UA,2022-04-07 17:41:27,51.871,32.6006,51.78,65,83,13.11,broken clouds
528,Kitimat,CA,2022-04-07 17:41:27,54.0524,-128.6534,34.18,100,100,1.92,snow
529,Vallenar,CL,2022-04-07 17:41:27,-28.5708,-70.7581,91.96,7,0,11.77,clear sky
530,Mecca,SA,2022-04-07 17:41:28,21.4267,39.8261,83.34,32,0,3.02,clear sky
531,Tselinnoye,RU,2022-04-07 17:41:29,53.0833,85.6667,33.22,88,91,4.56,overcast clouds
532,Bonavista,CA,2022-04-07 17:41:29,48.6499,-53.1147,32.32,96,100,25.01,overcast clouds
533,Aksu,CN,2022-04-07 17:41:30,41.1231,80.2644,67.89,17,16,5.73,few clouds
534,Sabha,LY,2022-04-07 17:41:30,27.0377,14.4283,90.09,7,0,16.13,clear sky
535,Emerald,AU,2022-04-07 17:41:31,-23.5333,148.1667,68.34,88,39,6.91,scattered clouds
536,Kavaratti,IN,2022-04-07 17:41:32,10.5669,72.642,83.88,71,37,7.34,scattered clouds
537,Zanesville,US,2022-04-07 17:41:06,39.9404,-82.0132,57.51,59,75,11.5,broken clouds
538,Bandarbeyla,SO,2022-04-07 17:41:32,9.4942,50.8122,80.49,76,21,9.6,few clouds
539,Nederland,US,2022-04-07 17:36:49,29.9744,-93.9924,71.64,27,0,14.97,clear sky
540,Kaeo,NZ,2022-04-07 17:41:33,-35.1,173.7833,61.56,80,61,7.14,broken clouds
541,Carballo,ES,2022-04-07 17:41:34,43.213,-8.691,57.42,89,100,13.35,overcast clouds
542,Pecos,US,2022-04-07 17:41:34,31.4229,-103.4932,63.43,12,0,8.05,clear sky
543,Guiberoua,CI,2022-04-07 17:41:35,6.2392,-6.1727,86.23,59,87,4.21,overcast clouds
544,Jalu,LY,2022-04-07 17:41:35,29.0331,21.5482,77.81,29,2,21.88,clear sky
545,Dumai,ID,2022-04-07 17:41:36,1.6833,101.45,72.27,99,98,0.43,overcast clouds
546,Gumdag,TM,2022-04-07 17:41:36,39.2061,54.5906,62.22,53,97,11.18,overcast clouds
547,Zelenoborskiy,RU,2022-04-07 17:41:37,66.845,32.3622,25.57,94,99,11.3,overcast clouds
548,Portland,US,2022-04-07 17:38:54,45.5234,-122.6762,66.06,36,91,13.0,overcast clouds
549,Anadyr,RU,2022-04-07 17:41:37,64.75,177.4833,-3.5,77,0,13.42,clear sky
550,Arteaga,MX,2022-04-07 17:41:37,18.4667,-102.4167,88.56,13,20,4.25,few clouds
551,Puerto Escondido,MX,2022-04-07 17:37:08,15.85,-97.0667,83.23,74,0,5.75,clear sky
552,Shirokiy,RU,2022-04-07 17:42:39,49.758,129.523,16.5,92,93,5.08,overcast clouds
553,Johi,PK,2022-04-07 17:42:39,26.6921,67.6133,91.72,18,0,10.38,clear sky
554,Bridlington,GB,2022-04-07 17:42:39,54.0831,-0.1919,42.89,87,97,18.01,overcast clouds
555,Leh,IN,2022-04-07 17:42:40,34.1667,77.5833,29.19,48,7,6.2,clear sky
556,Huarmey,PE,2022-04-07 17:42:40,-10.0681,-78.1522,75.92,71,48,13.0,scattered clouds
557,Ndioum,SN,2022-04-07 17:42:41,16.5129,-14.6471,103.89,11,1,16.42,clear sky
558,Broken Hill,AU,2022-04-07 17:42:41,-31.95,141.4333,58.71,72,43,1.14,scattered clouds
559,Camacha,PT,2022-04-07 17:42:41,33.0833,-16.3333,62.02,63,20,6.91,few clouds
560,Goderich,CA,2022-04-07 17:42:47,43.7501,-81.7165,50.92,53,25,14.97,scattered clouds
561,Olafsvik,IS,2022-04-07 17:42:47,64.8945,-23.7142,29.8,69,93,3.0,overcast clouds
562,Nizhneudinsk,RU,2022-04-07 17:42:48,54.9076,99.0276,28.47,91,42,3.4,scattered clouds
563,Nabire,ID,2022-04-07 17:42:48,-3.3667,135.4833,76.06,91,100,2.77,overcast clouds
564,Waingapu,ID,2022-04-07 17:42:49,-9.6567,120.2641,77.72,84,81,5.64,broken clouds
565,Sedalia,US,2022-04-07 17:42:49,38.7045,-93.2283,46.85,45,100,21.99,overcast clouds
566,Helena,US,2022-04-07 17:42:50,46.5927,-112.0361,49.82,36,0,5.01,clear sky
567,Itaituba,BR,2022-04-07 17:42:50,-4.2761,-55.9836,93.36,59,40,5.75,scattered clouds
568,Sola,VU,2022-04-07 17:42:51,-13.8833,167.55,81.54,78,100,7.76,overcast clouds
569,Salinopolis,BR,2022-04-07 17:42:51,-0.6136,-47.3561,77.65,90,100,6.73,overcast clouds
570,Norden,DE,2022-04-07 17:42:52,53.6,7.2,46.94,90,72,5.01,broken clouds
571,Cognac,FR,2022-04-07 17:42:52,45.5,-0.25,55.0,94,100,14.97,drizzle
572,Chongwe,ZM,2022-04-07 17:42:52,-15.3292,28.682,67.82,91,98,3.09,overcast clouds
573,Olinda,BR,2022-04-07 17:41:52,-8.0089,-34.8553,85.73,70,75,11.5,broken clouds
574,Tessalit,ML,2022-04-07 17:42:53,20.1986,1.0114,97.83,6,0,10.4,clear sky
575,La Plata,AR,2022-04-07 17:42:00,-34.9215,-57.9545,78.03,47,0,9.86,clear sky
576,Banjar,ID,2022-04-07 17:42:54,-8.19,114.9675,76.57,91,96,5.46,overcast clouds
577,Villamontes,BO,2022-04-07 17:42:55,-21.25,-63.5,90.84,52,40,11.5,scattered clouds
578,Bellary,IN,2022-04-07 17:42:55,15.15,76.9333,87.94,24,71,15.21,broken clouds
579,Caravelas,BR,2022-04-07 17:42:56,-17.7125,-39.2481,80.91,79,33,4.52,scattered clouds
580,Talaya,RU,2022-04-07 17:42:56,61.3833,152.75,7.21,97,100,3.62,overcast clouds
581,Broome,US,2022-04-07 17:42:57,42.2506,-75.833,49.19,82,100,14.97,moderate rain
582,Tilichiki,RU,2022-04-07 17:42:57,60.4667,166.1,4.68,88,99,6.06,overcast clouds
583,La Rioja,ES,2022-04-07 17:42:58,42.25,-2.5,58.78,56,95,6.98,overcast clouds
584,Roma,US,2022-04-07 17:42:58,43.2128,-75.4557,49.68,97,100,10.36,light rain
585,Gat,IL,2022-04-07 17:42:59,31.61,34.7642,81.39,24,97,10.2,overcast clouds
586,Taltal,CL,2022-04-07 17:42:59,-25.4,-70.4833,70.36,69,34,6.13,scattered clouds
587,Zhangye,CN,2022-04-07 17:43:00,38.9342,100.4517,57.97,12,70,1.86,broken clouds
588,Sakaide,JP,2022-04-07 17:43:00,34.3167,133.85,54.97,75,2,5.03,clear sky
589,Itarema,BR,2022-04-07 17:43:00,-2.9248,-39.9167,80.73,82,88,12.1,overcast clouds
590,Jamsa,FI,2022-04-07 17:43:01,61.8642,25.19,33.15,95,98,6.76,overcast clouds
591,Albion,US,2022-04-07 17:43:01,42.2431,-84.753,44.69,60,100,12.66,overcast clouds
592,Faya,SA,2022-04-07 17:43:02,18.3851,42.4509,73.51,22,0,3.15,clear sky
593,Mackenzie,CA,2022-04-07 17:43:02,55.2999,-123.1698,35.82,100,100,6.91,overcast clouds
594,Haveri,IN,2022-04-07 17:43:03,14.8,75.4,80.4,66,37,8.77,scattered clouds
595,Pittsburg,US,2022-04-07 17:43:03,38.028,-121.8847,79.86,45,0,5.75,clear sky
596,Nhulunbuy,AU,2022-04-07 17:43:03,-12.2333,136.7667,77.61,88,72,0.0,broken clouds
597,Divinopolis,BR,2022-04-07 17:43:04,-20.1389,-44.8839,82.26,63,15,0.29,few clouds
598,Yueyang,CN,2022-04-07 17:44:04,29.3333,113.0919,66.07,62,0,6.31,clear sky
599,Trairi,BR,2022-04-07 17:44:05,-3.2778,-39.2689,81.37,86,91,10.13,overcast clouds
600,Jiaozuo,CN,2022-04-07 17:44:05,35.2397,113.2331,59.85,56,0,5.46,clear sky
601,Uyuni,BO,2022-04-07 17:44:06,-20.4597,-66.825,61.81,26,21,15.3,few clouds
602,Ipiau,BR,2022-04-07 17:44:06,-14.1372,-39.7339,93.29,29,3,3.89,clear sky
603,San Juan,AR,2022-04-07 17:41:01,-31.5375,-68.5364,85.64,23,0,4.43,clear sky
604,Biak,ID,2022-04-07 17:44:07,-0.9131,122.8766,75.79,82,83,1.14,broken clouds
605,Privolzhye,RU,2022-04-07 17:44:07,52.8649,48.6044,43.0,77,98,6.62,overcast clouds
606,Dormidontovka,RU,2022-04-07 17:44:08,47.7702,134.9076,28.17,74,81,7.72,broken clouds
607,Salihorsk,BY,2022-04-07 17:44:08,52.7876,27.5415,52.07,80,100,12.1,overcast clouds
608,Luwingu,ZM,2022-04-07 17:44:08,-10.2621,29.9271,63.36,94,100,4.27,overcast clouds
609,La Palma,US,2022-04-07 17:44:09,33.8464,-118.0467,94.8,16,0,10.0,clear sky
610,Newry,GB,2022-04-07 17:44:12,54.1784,-6.3374,48.11,73,47,13.6,scattered clouds
611,Matagami,CA,2022-04-07 17:44:13,49.7502,-77.6328,32.11,100,100,9.22,snow
612,Sioux Lookout,CA,2022-04-07 17:44:13,50.1001,-91.917,30.27,55,100,9.22,overcast clouds
613,Ailigandi,PA,2022-04-07 17:44:14,9.2333,-78.0167,82.62,78,100,3.71,overcast clouds
614,Ishigaki,JP,2022-04-07 17:44:14,24.3448,124.1572,68.13,77,75,16.11,broken clouds
615,Isla Mujeres,MX,2022-04-07 17:44:14,21.2311,-86.731,86.16,64,93,13.58,overcast clouds
616,Sinnamary,GF,2022-04-07 17:44:15,5.3833,-52.95,76.78,92,86,9.15,overcast clouds
617,Ayan,RU,2022-04-07 17:44:16,56.45,138.1667,21.31,88,100,5.88,overcast clouds
618,Lukulu,ZM,2022-04-07 17:44:16,-14.3707,23.242,69.71,85,45,4.59,light rain
619,Grand-Santi,GF,2022-04-07 17:44:16,4.25,-54.3833,83.34,77,82,4.43,light rain
620,Uzventis,LT,2022-04-07 17:44:17,55.7803,22.6547,46.47,79,94,16.11,overcast clouds
621,Providencia,MX,2022-04-07 17:44:17,28.7167,-111.5833,93.65,23,0,8.97,clear sky
622,Kankakee,US,2022-04-07 17:44:18,41.15,-87.8667,44.46,70,100,25.32,overcast clouds
623,Narrabri,AU,2022-04-07 17:44:18,-30.3167,149.7833,64.49,88,100,9.22,overcast clouds
624,Acapulco,MX,2022-04-07 17:42:08,16.8634,-99.8901,78.62,73,75,9.22,broken clouds
625,Niquero,CU,2022-04-07 17:44:19,20.0431,-77.5828,85.21,60,50,3.65,scattered clouds
626,Novyy Urengoy,RU,2022-04-07 17:44:19,66.0833,76.6333,-1.21,98,99,8.1,overcast clouds
627,Bowen,AU,2022-04-07 17:44:20,-20.0167,148.2333,75.27,85,15,9.95,few clouds
628,Puerto Montt,CL,2022-04-07 17:43:54,-41.4698,-72.9447,61.63,82,75,3.44,broken clouds
629,Robore,BO,2022-04-07 17:44:20,-18.3333,-59.75,91.49,58,40,0.0,scattered clouds
630,Paita,PE,2022-04-07 17:44:21,-5.0892,-81.1144,78.15,65,51,15.05,broken clouds
631,Santa Fe,AR,2022-04-07 17:44:09,-31.6333,-60.7,84.0,68,86,1.99,overcast clouds
632,Mount Pleasant,US,2022-04-07 17:41:13,32.7941,-79.8626,82.09,80,40,16.11,haze
633,Lannion,FR,2022-04-07 17:41:12,48.75,-3.4167,52.34,75,100,17.27,overcast clouds
634,Isla Vista,US,2022-04-07 17:44:23,34.4133,-119.861,91.35,33,0,5.75,clear sky
635,Asfi,MA,2022-04-07 17:44:23,32.2994,-9.2372,62.71,70,0,19.95,clear sky
636,Lakes Entrance,AU,2022-04-07 17:44:24,-37.8811,147.981,59.16,86,86,8.34,overcast clouds
637,Luau,AO,2022-04-07 17:44:24,-10.7073,22.2247,67.48,91,83,2.48,light rain
638,Kuah,MY,2022-04-07 17:44:25,6.3265,99.8432,78.78,94,20,0.0,few clouds
639,Curanilahue,CL,2022-04-07 17:44:25,-37.4667,-73.35,65.73,65,46,6.35,scattered clouds
640,Ahmadpur Sial,PK,2022-04-07 17:44:25,30.6754,71.7483,88.2,6,0,5.26,clear sky
641,Tricase,IT,2022-04-07 17:44:26,39.9304,18.3553,56.55,81,52,5.32,broken clouds
642,Xuddur,SO,2022-04-07 17:44:26,4.1213,43.8894,86.99,26,95,9.26,overcast clouds
643,Tumaco,CO,2022-04-07 17:44:27,1.7986,-78.8156,81.79,77,100,9.08,light rain
644,Imeni Poliny Osipenko,RU,2022-04-07 17:45:27,52.4201,136.4853,2.25,99,91,1.05,overcast clouds
645,Vikhorevka,RU,2022-04-07 17:45:28,56.1201,101.1636,35.19,86,70,10.07,broken clouds
646,Yerbogachen,RU,2022-04-07 17:45:28,61.2767,108.0108,29.25,95,100,12.1,snow
647,Bundaberg,AU,2022-04-07 17:45:29,-24.85,152.35,70.09,94,100,9.22,overcast clouds
648,Missoula,US,2022-04-07 17:45:03,47.0166,-113.8009,37.85,48,68,2.55,broken clouds
649,Great Falls,US,2022-04-07 17:45:29,47.5002,-111.3008,51.6,25,0,6.91,clear sky
650,Gorom-Gorom,BF,2022-04-07 17:45:30,14.4439,-0.2361,101.82,9,15,5.12,few clouds
651,Atlantic Beach,US,2022-04-07 17:45:30,30.3344,-81.3987,85.1,71,75,18.41,broken clouds
652,Dadri,IN,2022-04-07 17:45:31,28.5667,77.55,93.45,8,0,3.06,clear sky
653,Viedma,AR,2022-04-07 17:45:31,-40.8135,-62.9967,63.66,62,96,12.75,overcast clouds
654,Manzhouli,CN,2022-04-07 17:45:32,49.6,117.4333,48.74,53,99,29.19,overcast clouds
655,Takoradi,GH,2022-04-07 17:45:32,4.8845,-1.7554,83.52,76,86,13.8,overcast clouds
656,Taoudenni,ML,2022-04-07 17:45:33,22.6783,-3.9836,94.84,8,4,10.8,clear sky
657,Chicama,PE,2022-04-07 17:45:33,-7.8447,-79.1469,64.94,60,93,9.8,overcast clouds
658,Bardiyah,LY,2022-04-07 17:45:34,31.7561,25.0865,62.96,81,37,23.6,scattered clouds
659,Galle,LK,2022-04-07 17:45:34,6.0367,80.217,80.28,81,98,2.66,overcast clouds
660,Norrkoping,SE,2022-04-07 17:45:35,58.5942,16.1826,41.99,92,100,18.41,moderate rain
